[
  {
    "id": "4bf58bdbbfeac9282aaf9236",
    "name": "Las Iguanas",
    "area": "riverside",
    "position": {
    "latitude": 51.452662,
    "longitude": -0.970905
    }
  },
  {
    "id": "4b9c1b45f964a520b74a36e3",
    "name": "Slug and Lettuce",
    "area": "riverside",
    "position": {
      "latitude": 51.453590,
      "longitude": -0.970821
    }
  },
  {
    "id": "4ae3711cf964a520269521e3",
    "name": "The Purple Turtle",
    "area": "town",
    "position": {
      "latitude": 51.453983,
      "longitude": -0.972965
    }
  },
  {
    "id": "4d8b6da9f6528eecda3d961b",
    "name": "All Bar One",
    "area": "riverside",
    "position": {
      "latitude": 51.453510,
      "longitude": -0.970925
    }
  },
  {
    "id": "5972162b029a55583a3af370",
    "name": "The Beach Bar",
    "area": "riverside",
    "position": {
      "latitude": 51.453005,
      "longitude": -0.970821
    }
  },
  {
    "id": "4b8ee996f964a520473e33e3",
    "name": "The Pavlovs Dog",
    "area": "town",
      "position": {
        "latitude": 51.454391,
        "longitude": -0.974740
  }
}
]
